[
  {
      "customerID": "CUST0001",
      "customerName": "ABC India Pvt Ltd.",
      "source": "Tata Steel Kalinganagar",
      "sourceLat": 20.9446,
      "sourceLong": 85.1673,
      "destination": "Mumbai",
      "destinationLat": 19.076,
      "destinationLong": 72.8777,
      "orders": [
          {
              "orderId": "ORD33877",
              "orderDate": "12/06/2024",
              "plannedDeliveryDate": "26/06/2024",
              "invoices": [
                  {
                      "invoiceno": "6788118613",
                      "invoiceDate": "12/06/2024",
                      "status": "delivered",
                      "vehicleNo": "WB8YU1797",
                      "currentLocation": "Mumbai",
                      "lat": 19.076,
                      "long": 72.8777,
                      "ETA": null,
                      "deliveryDate": "14/06/2024"
                  },
                  {
                      "invoiceno": "7891569254",
                      "invoiceDate": "15/06/2024",
                      "status": "delivered",
                      "vehicleNo": "BR75DD9110",
                      "currentLocation": "Mumbai",
                      "lat": 19.076,
                      "long": 72.8777,
                      "ETA": null,
                      "deliveryDate": "17/06/2024"
                  }
              ]
          }
      ]
  },
  {
      "customerID": "CUST0002",
      "customerName": "STU India Pvt. Ltd.",
      "source": "Tata Steel Jamshedpur",
      "sourceLat": 22.8046,
      "sourceLong": 86.2029,
      "destination": "Delhi",
      "destinationLat": 28.7041,
      "destinationLong": 77.1025,
      "orders": [
          {
              "orderId": "ORD77350",
              "orderDate": "16/06/2024",
              "plannedDeliveryDate": "11/07/2024",
              "invoices": [
                  {
                      "invoiceno": "3202956093",
                      "invoiceDate": "02/06/2024",
                      "status": "intransit",
                      "vehicleNo": "UP13MX8428",
                      "currentLocation": "Mehsana",
                      "lat": 25.93958310019342,
                      "long": 81.7022313785854,
                      "ETA": "17/08/2024",
                      "deliveryDate": null
                  },
                  {
                      "invoiceno": "4010612804",
                      "invoiceDate": "08/06/2024",
                      "status": "intransit",
                      "vehicleNo": "JH47FJ3780",
                      "currentLocation": "Dhanbad",
                      "lat": 25.809916351382498,
                      "long": 81.23587452356523,
                      "ETA": "14/08/2024",
                      "deliveryDate": null
                  },
                  {
                      "invoiceno": "3457821642",
                      "invoiceDate": "12/06/2024",
                      "status": "delivered",
                      "vehicleNo": "BR78UB4106",
                      "currentLocation": "Delhi",
                      "lat": 28.7041,
                      "long": 77.1025,
                      "ETA": null,
                      "deliveryDate": "20/06/2024"
                  },
                  {
                      "invoiceno": "1870870123",
                      "invoiceDate": "16/06/2024",
                      "status": "intransit",
                      "vehicleNo": "WB81JL6122",
                      "currentLocation": "Surat",
                      "lat": 25.296866072286946,
                      "long": 81.53408079855235,
                      "ETA": "19/08/2024",
                      "deliveryDate": null
                  },
                  {
                      "invoiceno": "2411495882",
                      "invoiceDate": "22/06/2024",
                      "status": "delivered",
                      "vehicleNo": "WB16ZY4187",
                      "currentLocation": "Delhi",
                      "lat": 28.7041,
                      "long": 77.1025,
                      "ETA": null,
                      "deliveryDate": "24/06/2024"
                  }
              ]
          }
      ]
  },
  {
      "customerID": "CUST0003",
      "customerName": "B.H.S. Pvt. Ltd.",
      "source": "Tata Steel Meramandali",
      "sourceLat": 20.8246,
      "sourceLong": 85.8381,
      "destination": "Surat",
      "destinationLat": 21.1702,
      "destinationLong": 72.8311,
      "orders": [
          {
              "orderId": "ORD57440",
              "orderDate": "02/06/2024",
              "plannedDeliveryDate": "01/07/2024",
              "invoices": [
                  {
                      "invoiceno": "6167588098",
                      "invoiceDate": "15/06/2024",
                      "status": "delivered",
                      "vehicleNo": "WB78QB2445",
                      "currentLocation": "Surat",
                      "lat": 21.1702,
                      "long": 72.8311,
                      "ETA": null,
                      "deliveryDate": "20/06/2024"
                  }
              ]
          },
          {
              "orderId": "ORD26113",
              "orderDate": "24/06/2024",
              "plannedDeliveryDate": "04/07/2024",
              "invoices": [
                  {
                      "invoiceno": "2740629138",
                      "invoiceDate": "06/06/2024",
                      "status": "delivered",
                      "vehicleNo": "WB50ML3531",
                      "currentLocation": "Surat",
                      "lat": 21.1702,
                      "long": 72.8311,
                      "ETA": null,
                      "deliveryDate": "10/06/2024"
                  },
                  {
                      "invoiceno": "3974320465",
                      "invoiceDate": "05/06/2024",
                      "status": "intransit",
                      "vehicleNo": "WB20PX4636",
                      "currentLocation": "Pimpri-Chinchwad",
                      "lat": 20.633133723348745,
                      "long": 79.74981547051037,
                      "ETA": "02/09/2024",
                      "deliveryDate": null
                  },
                  {
                      "invoiceno": "4902375897",
                      "invoiceDate": "11/06/2024",
                      "status": "intransit",
                      "vehicleNo": "BR63OL5814",
                      "currentLocation": "Tinsukia",
                      "lat": 20.96373111265434,
                      "long": 79.7591880782632,
                      "ETA": "02/09/2024",
                      "deliveryDate": null
                  },
                  {
                      "invoiceno": "1057938472",
                      "invoiceDate": "07/06/2024",
                      "status": "intransit",
                      "vehicleNo": "BR8KQ2325",
                      "currentLocation": "Malegaon",
                      "lat": 21.20828292721094,
                      "long": 79.71253188770461,
                      "ETA": "01/09/2024",
                      "deliveryDate": null
                  }
              ]
          },
          {
              "orderId": "ORD56710",
              "orderDate": "12/06/2024",
              "plannedDeliveryDate": "11/07/2024",
              "invoices": [
                  {
                      "invoiceno": "1301627344",
                      "invoiceDate": "16/06/2024",
                      "status": "intransit",
                      "vehicleNo": "BR96SB7290",
                      "currentLocation": "Farrukhabad",
                      "lat": 21.325115505263636,
                      "long": 78.9935262217236,
                      "ETA": "25/08/2024",
                      "deliveryDate": null
                  }
              ]
          }
      ]
  },
  {
      "customerID": "CUST0004",
      "customerName": "A.N.G. Steels",
      "source": "Tata Steel Jamshedpur",
      "sourceLat": 22.8046,
      "sourceLong": 86.2029,
      "destination": "Bangalore",
      "destinationLat": 12.9716,
      "destinationLong": 77.5946,
      "orders": [
          {
              "orderId": "ORD33075",
              "orderDate": "19/06/2024",
              "plannedDeliveryDate": "15/07/2024",
              "invoices": [
                  {
                      "invoiceno": "5590310900",
                      "invoiceDate": "21/06/2024",
                      "status": "intransit",
                      "vehicleNo": "UP95HK3542",
                      "currentLocation": "Giridih",
                      "lat": 17.499536604022172,
                      "long": 81.51999371542689,
                      "ETA": "23/08/2024",
                      "deliveryDate": null
                  },
                  {
                      "invoiceno": "9502745562",
                      "invoiceDate": "20/06/2024",
                      "status": "delivered",
                      "vehicleNo": "JH44VF3794",
                      "currentLocation": "Bangalore",
                      "lat": 12.9716,
                      "long": 77.5946,
                      "ETA": null,
                      "deliveryDate": "23/06/2024"
                  },
                  {
                      "invoiceno": "5661671156",
                      "invoiceDate": "23/06/2024",
                      "status": "delivered",
                      "vehicleNo": "WB66EY6718",
                      "currentLocation": "Bangalore",
                      "lat": 12.9716,
                      "long": 77.5946,
                      "ETA": null,
                      "deliveryDate": "24/06/2024"
                  }
              ]
          },
          {
              "orderId": "ORD82469",
              "orderDate": "08/06/2024",
              "plannedDeliveryDate": "02/07/2024",
              "invoices": [
                  {
                      "invoiceno": "6918384408",
                      "invoiceDate": "15/06/2024",
                      "status": "intransit",
                      "vehicleNo": "WB10VK1326",
                      "currentLocation": "Hubli\u2013Dharwad",
                      "lat": 17.541914324805948,
                      "long": 81.68383577508921,
                      "ETA": "25/08/2024",
                      "deliveryDate": null
                  },
                  {
                      "invoiceno": "3478117554",
                      "invoiceDate": "15/06/2024",
                      "status": "intransit",
                      "vehicleNo": "UP56HN5017",
                      "currentLocation": "Ambattur",
                      "lat": 17.58553433598412,
                      "long": 82.30470675199913,
                      "ETA": "29/08/2024",
                      "deliveryDate": null
                  },
                  {
                      "invoiceno": "7021681250",
                      "invoiceDate": "24/06/2024",
                      "status": "delivered",
                      "vehicleNo": "JH60LJ5015",
                      "currentLocation": "Bangalore",
                      "lat": 12.9716,
                      "long": 77.5946,
                      "ETA": null,
                      "deliveryDate": "24/06/2024"
                  }
              ]
          },
          {
              "orderId": "ORD77242",
              "orderDate": "20/06/2024",
              "plannedDeliveryDate": "14/07/2024",
              "invoices": [
                  {
                      "invoiceno": "1499854587",
                      "invoiceDate": "01/06/2024",
                      "status": "delivered",
                      "vehicleNo": "UP0HG1053",
                      "currentLocation": "Bangalore",
                      "lat": 12.9716,
                      "long": 77.5946,
                      "ETA": null,
                      "deliveryDate": "23/06/2024"
                  },
                  {
                      "invoiceno": "9068768051",
                      "invoiceDate": "05/06/2024",
                      "status": "intransit",
                      "vehicleNo": "WB69BB6426",
                      "currentLocation": "Giridih",
                      "lat": 17.723558138629596,
                      "long": 81.76723608263622,
                      "ETA": "27/08/2024",
                      "deliveryDate": null
                  },
                  {
                      "invoiceno": "5374094596",
                      "invoiceDate": "18/06/2024",
                      "status": "intransit",
                      "vehicleNo": "BR21CH3181",
                      "currentLocation": "Bhalswa Jahangir Pur",
                      "lat": 17.637258671366652,
                      "long": 81.70467743502964,
                      "ETA": "26/08/2024",
                      "deliveryDate": null
                  },
                  {
                      "invoiceno": "8912461791",
                      "invoiceDate": "02/06/2024",
                      "status": "intransit",
                      "vehicleNo": "UP65WU9606",
                      "currentLocation": "Surat",
                      "lat": 17.420901693454393,
                      "long": 81.64722319258358,
                      "ETA": "24/08/2024",
                      "deliveryDate": null
                  }
              ]
          }
      ]
  },
  {
      "customerID": "CUST0005",
      "customerName": "Raman FTECH INDIA",
      "source": "Tata Steel Jamshedpur",
      "sourceLat": 22.8046,
      "sourceLong": 86.2029,
      "destination": "Jaipur",
      "destinationLat": 26.9124,
      "destinationLong": 75.7873,
      "orders": [
          {
              "orderId": "ORD54043",
              "orderDate": "19/06/2024",
              "plannedDeliveryDate": "17/07/2024",
              "invoices": [
                  {
                      "invoiceno": "7877119311",
                      "invoiceDate": "08/06/2024",
                      "status": "intransit",
                      "vehicleNo": "UP33MG6881",
                      "currentLocation": "Tiruchirappalli",
                      "lat": 25.01417070767106,
                      "long": 80.90483943004638,
                      "ETA": "18/08/2024",
                      "deliveryDate": null
                  }
              ]
          }
      ]
  },
  {
      "customerID": "CUST0006",
      "customerName": "p.S. ALLOYS ",
      "source": "Tata Steel Kalinganagar",
      "sourceLat": 20.9446,
      "sourceLong": 85.1673,
      "destination": "Chennai",
      "destinationLat": 13.0827,
      "destinationLong": 80.2707,
      "orders": [
          {
              "orderId": "ORD41143",
              "orderDate": "14/06/2024",
              "plannedDeliveryDate": "10/07/2024",
              "invoices": [
                  {
                      "invoiceno": "2103020171",
                      "invoiceDate": "06/06/2024",
                      "status": "intransit",
                      "vehicleNo": "UP23LK8675",
                      "currentLocation": "Jaipur",
                      "lat": 16.79831728073355,
                      "long": 82.7903790084742,
                      "ETA": "08/08/2024",
                      "deliveryDate": null
                  }
              ]
          },
          {
              "orderId": "ORD57706",
              "orderDate": "07/06/2024",
              "plannedDeliveryDate": "03/07/2024",
              "invoices": [
                  {
                      "invoiceno": "9421817054",
                      "invoiceDate": "21/06/2024",
                      "status": "delivered",
                      "vehicleNo": "WB13HE3855",
                      "currentLocation": "Chennai",
                      "lat": 13.0827,
                      "long": 80.2707,
                      "ETA": null,
                      "deliveryDate": "22/06/2024"
                  }
              ]
          },
          {
              "orderId": "ORD26805",
              "orderDate": "19/06/2024",
              "plannedDeliveryDate": "02/07/2024",
              "invoices": [
                  {
                      "invoiceno": "1700704160",
                      "invoiceDate": "24/06/2024",
                      "status": "intransit",
                      "vehicleNo": "WB20AS8350",
                      "currentLocation": "Singrauli",
                      "lat": 16.79381711825457,
                      "long": 82.49689974779231,
                      "ETA": "07/08/2024",
                      "deliveryDate": null
                  },
                  {
                      "invoiceno": "6576443816",
                      "invoiceDate": "23/06/2024",
                      "status": "delivered",
                      "vehicleNo": "UP23AY8143",
                      "currentLocation": "Chennai",
                      "lat": 13.0827,
                      "long": 80.2707,
                      "ETA": null,
                      "deliveryDate": "23/06/2024"
                  },
                  {
                      "invoiceno": "1198112017",
                      "invoiceDate": "06/06/2024",
                      "status": "delivered",
                      "vehicleNo": "BR50NC3426",
                      "currentLocation": "Chennai",
                      "lat": 13.0827,
                      "long": 80.2707,
                      "ETA": null,
                      "deliveryDate": "21/06/2024"
                  }
              ]
          }
      ]
  },
  {
      "customerID": "CUST0007",
      "customerName": "V.A.S Enterprises",
      "source": "Tata Steel Meramandali",
      "sourceLat": 20.8246,
      "sourceLong": 85.8381,
      "destination": "Jaipur",
      "destinationLat": 26.9124,
      "destinationLong": 75.7873,
      "orders": [
          {
              "orderId": "ORD45470",
              "orderDate": "04/06/2024",
              "plannedDeliveryDate": "28/06/2024",
              "invoices": [
                  {
                      "invoiceno": "1112624871",
                      "invoiceDate": "18/06/2024",
                      "status": "intransit",
                      "vehicleNo": "BR17TU4030",
                      "currentLocation": "Chittoor",
                      "lat": 23.53180917787353,
                      "long": 80.58049493045546,
                      "ETA": "22/08/2024",
                      "deliveryDate": null
                  },
                  {
                      "invoiceno": "1391594692",
                      "invoiceDate": "02/06/2024",
                      "status": "intransit",
                      "vehicleNo": "BR91DA9543",
                      "currentLocation": "Karnal",
                      "lat": 24.05047427111107,
                      "long": 80.55937952976296,
                      "ETA": "19/08/2024",
                      "deliveryDate": null
                  },
                  {
                      "invoiceno": "9186331567",
                      "invoiceDate": "19/06/2024",
                      "status": "intransit",
                      "vehicleNo": "UP38WK5275",
                      "currentLocation": "Muzaffarpur",
                      "lat": 23.95831475042534,
                      "long": 80.61388356689514,
                      "ETA": "20/08/2024",
                      "deliveryDate": null
                  },
                  {
                      "invoiceno": "6787091044",
                      "invoiceDate": "06/06/2024",
                      "status": "delivered",
                      "vehicleNo": "JH39YB3590",
                      "currentLocation": "Jaipur",
                      "lat": 26.9124,
                      "long": 75.7873,
                      "ETA": null,
                      "deliveryDate": "15/06/2024"
                  },
                  {
                      "invoiceno": "7953841393",
                      "invoiceDate": "07/06/2024",
                      "status": "delivered",
                      "vehicleNo": "BR58AI6781",
                      "currentLocation": "Jaipur",
                      "lat": 26.9124,
                      "long": 75.7873,
                      "ETA": null,
                      "deliveryDate": "22/06/2024"
                  }
              ]
          },
          {
              "orderId": "ORD15142",
              "orderDate": "11/06/2024",
              "plannedDeliveryDate": "01/07/2024",
              "invoices": [
                  {
                      "invoiceno": "6972219748",
                      "invoiceDate": "21/06/2024",
                      "status": "intransit",
                      "vehicleNo": "JH39IM2927",
                      "currentLocation": "Shahjahanpur",
                      "lat": 24.203003894268218,
                      "long": 81.22888611541492,
                      "ETA": "24/08/2024",
                      "deliveryDate": null
                  },
                  {
                      "invoiceno": "6247475024",
                      "invoiceDate": "24/06/2024",
                      "status": "delivered",
                      "vehicleNo": "WB55OQ2016",
                      "currentLocation": "Jaipur",
                      "lat": 26.9124,
                      "long": 75.7873,
                      "ETA": null,
                      "deliveryDate": "24/06/2024"
                  }
              ]
          }
      ]
  },
  {
      "customerID": "CUST0008",
      "customerName": "S.S.D. Steel Works",
      "source": "Tata Steel Kalinganagar",
      "sourceLat": 20.9446,
      "sourceLong": 85.1673,
      "destination": "Jaipur",
      "destinationLat": 26.9124,
      "destinationLong": 75.7873,
      "orders": [
          {
              "orderId": "ORD93628",
              "orderDate": "10/06/2024",
              "plannedDeliveryDate": "22/06/2024",
              "invoices": [
                  {
                      "invoiceno": "4030708069",
                      "invoiceDate": "16/06/2024",
                      "status": "intransit",
                      "vehicleNo": "WB63FY5892",
                      "currentLocation": "Hubli\u2013Dharwad",
                      "lat": 23.593257338401465,
                      "long": 80.93052097854465,
                      "ETA": "25/08/2024",
                      "deliveryDate": null
                  },
                  {
                      "invoiceno": "1841817072",
                      "invoiceDate": "23/06/2024",
                      "status": "intransit",
                      "vehicleNo": "WB64TH2969",
                      "currentLocation": "Muzaffarpur",
                      "lat": 23.964588407653704,
                      "long": 80.60309234539196,
                      "ETA": "20/08/2024",
                      "deliveryDate": null
                  },
                  {
                      "invoiceno": "8328320142",
                      "invoiceDate": "20/06/2024",
                      "status": "delivered",
                      "vehicleNo": "BR23TK8899",
                      "currentLocation": "Jaipur",
                      "lat": 26.9124,
                      "long": 75.7873,
                      "ETA": null,
                      "deliveryDate": "23/06/2024"
                  },
                  {
                      "invoiceno": "1035493411",
                      "invoiceDate": "12/06/2024",
                      "status": "intransit",
                      "vehicleNo": "JH12LO4351",
                      "currentLocation": "Ambala",
                      "lat": 23.74457655391579,
                      "long": 80.64593761973838,
                      "ETA": "22/08/2024",
                      "deliveryDate": null
                  },
                  {
                      "invoiceno": "9873050041",
                      "invoiceDate": "04/06/2024",
                      "status": "delivered",
                      "vehicleNo": "JH56DV5676",
                      "currentLocation": "Jaipur",
                      "lat": 26.9124,
                      "long": 75.7873,
                      "ETA": null,
                      "deliveryDate": "05/06/2024"
                  }
              ]
          },
          {
              "orderId": "ORD58486",
              "orderDate": "15/06/2024",
              "plannedDeliveryDate": "07/07/2024",
              "invoices": [
                  {
                      "invoiceno": "5389032701",
                      "invoiceDate": "03/06/2024",
                      "status": "intransit",
                      "vehicleNo": "JH63FH9767",
                      "currentLocation": "Adoni",
                      "lat": 23.494254144930146,
                      "long": 80.85470169321081,
                      "ETA": "25/08/2024",
                      "deliveryDate": null
                  }
              ]
          }
      ]
  },
  {
      "customerID": "CUST0009",
      "customerName": "Jhaveri Ltd",
      "source": "Tata Steel Meramandali",
      "sourceLat": 20.8246,
      "sourceLong": 85.8381,
      "destination": "Hyderabad",
      "destinationLat": 17.385,
      "destinationLong": 78.4867,
      "orders": [
          {
              "orderId": "ORD78054",
              "orderDate": "04/06/2024",
              "plannedDeliveryDate": "16/06/2024",
              "invoices": [
                  {
                      "invoiceno": "9671006346",
                      "invoiceDate": "11/06/2024",
                      "status": "intransit",
                      "vehicleNo": "UP70UD9027",
                      "currentLocation": "Panipat",
                      "lat": 19.152311845418083,
                      "long": 82.07580164185245,
                      "ETA": "04/08/2024",
                      "deliveryDate": null
                  },
                  {
                      "invoiceno": "4007161860",
                      "invoiceDate": "15/06/2024",
                      "status": "intransit",
                      "vehicleNo": "JH23EZ6514",
                      "currentLocation": "Satara",
                      "lat": 18.913577521408904,
                      "long": 82.62141562902833,
                      "ETA": "08/08/2024",
                      "deliveryDate": null
                  },
                  {
                      "invoiceno": "5257037721",
                      "invoiceDate": "17/06/2024",
                      "status": "intransit",
                      "vehicleNo": "JH66AE8460",
                      "currentLocation": "Pondicherry",
                      "lat": 19.125075663717677,
                      "long": 82.28470079082189,
                      "ETA": "05/08/2024",
                      "deliveryDate": null
                  },
                  {
                      "invoiceno": "2672167334",
                      "invoiceDate": "04/06/2024",
                      "status": "delivered",
                      "vehicleNo": "UP97DE5343",
                      "currentLocation": "Hyderabad",
                      "lat": 17.385,
                      "long": 78.4867,
                      "ETA": null,
                      "deliveryDate": "05/06/2024"
                  },
                  {
                      "invoiceno": "9365487501",
                      "invoiceDate": "20/06/2024",
                      "status": "delivered",
                      "vehicleNo": "JH3UT1634",
                      "currentLocation": "Hyderabad",
                      "lat": 17.385,
                      "long": 78.4867,
                      "ETA": null,
                      "deliveryDate": "23/06/2024"
                  }
              ]
          }
      ]
  },
  {
      "customerID": "CUST0010",
      "customerName": "Sawhney Inc",
      "source": "Tata Steel Jamshedpur",
      "sourceLat": 22.8046,
      "sourceLong": 86.2029,
      "destination": "Delhi",
      "destinationLat": 28.7041,
      "destinationLong": 77.1025,
      "orders": [
          {
              "orderId": "ORD49150",
              "orderDate": "20/06/2024",
              "plannedDeliveryDate": "10/07/2024",
              "invoices": [
                  {
                      "invoiceno": "4763404775",
                      "invoiceDate": "10/06/2024",
                      "status": "intransit",
                      "vehicleNo": "WB23OT7603",
                      "currentLocation": "Firozabad",
                      "lat": 26.13120779900241,
                      "long": 82.09173489070257,
                      "ETA": "20/08/2024",
                      "deliveryDate": null
                  }
              ]
          },
          {
              "orderId": "ORD44731",
              "orderDate": "01/06/2024",
              "plannedDeliveryDate": "17/06/2024",
              "invoices": [
                  {
                      "invoiceno": "9825426434",
                      "invoiceDate": "09/06/2024",
                      "status": "delivered",
                      "vehicleNo": "UP16OA2888",
                      "currentLocation": "Delhi",
                      "lat": 28.7041,
                      "long": 77.1025,
                      "ETA": null,
                      "deliveryDate": "20/06/2024"
                  },
                  {
                      "invoiceno": "3203474502",
                      "invoiceDate": "03/06/2024",
                      "status": "delivered",
                      "vehicleNo": "JH29RO4070",
                      "currentLocation": "Delhi",
                      "lat": 28.7041,
                      "long": 77.1025,
                      "ETA": null,
                      "deliveryDate": "07/06/2024"
                  }
              ]
          }
      ]
  }
]